[{"day":"Mondays","start":15,"start_minutes":0,"end":16,"end_minutes":0,"type":"C","details":"Mon=As Bill Sees It, Wed=Living Sober","zipcode":"10025","latlong":{"lat":40.7944661,"lng":-73.97063899999999},"street":"207 West 96th Street","new_york_addresses":"207 West 96th Street, New York, NY","notes":"Basement","title":"A NEW DAY - A New Day","name":"Holy Name Church","wheelchairaccess":"No"},{"day":"Wednesdays","start":15,"start_minutes":0,"end":16,"end_minutes":0,"type":"C","details":"Mon=As Bill Sees It, Wed=Living Sober","zipcode":"10025","latlong":{"lat":40.7944661,"lng":-73.97063899999999},"street":"207 West 96th Street","new_york_addresses":"207 West 96th Street, New York, NY","notes":"Basement","title":"A NEW DAY - A New Day","name":"Holy Name Church","wheelchairaccess":"No"},{"day":"Fridays","start":19,"start_minutes":45,"end":20,"end_minutes":45,"type":"OD","details":"","zipcode":"10023","latlong":{"lat":40.775709,"lng":-73.98106609999999},"street":"120 West 69th Street","new_york_addresses":"120 West 69th Street, New York, NY","notes":"Basement","title":"A VISION FOR YOU - A Vision For You","name":"Christ & St. Stephen's Church","wheelchairaccess":"No"},{"day":"Fridays","start":21,"start_minutes":0,"end":22,"end_minutes":0,"type":"BB","details":"","zipcode":"10023","latlong":{"lat":40.775709,"lng":-73.98106609999999},"street":"120 West 69th Street","new_york_addresses":"120 West 69th Street, New York, NY","notes":"Basement","title":"A VISION FOR YOU - A Vision For You","name":"Christ & St. Stephen's Church","wheelchairaccess":"No"},{"day":"Tuesdays","start":18,"start_minutes":30,"end":19,"end_minutes":45,"type":"C","details":"Tues= AA Literature/Topic meeting The group's focus is on long-term sobriety; but all A.A. members are welcome.","zipcode":"10023","latlong":{"lat":40.7681523,"lng":-73.986936},"street":"422 West 57th Street","new_york_addresses":"422 West 57th Street, New York, NY","notes":"","title":"AFTER EIGHT (:i) - After Eight","name":"Trinity Presbyterian Church","wheelchairaccess":"No"},{"day":"Thursdays","start":18,"start_minutes":30,"end":19,"end_minutes":30,"type":"C","details":"","zipcode":"10023","latlong":{"lat":40.7795102,"lng":-73.98025559999999},"street":"164 West 74th Street","new_york_addresses":"164 West 74th Street, New York, NY","notes":"1st floor","title":"AFTER EIGHT (:ii) -","name":"Phoenix House","wheelchairaccess":"Yes"},{"day":"Fridays","start":21,"start_minutes":30,"end":22,"end_minutes":30,"type":"OD","details":"","zipcode":"10025","latlong":{"lat":40.7944661,"lng":-73.97063899999999},"street":"207 West 96th Street","new_york_addresses":"207 West 96th Street, New York, NY","notes":"Little Room Basement","title":"ALTERED ATTITUDES - Altered Attitudes","name":"Holy Name Church","wheelchairaccess":"No"},{"day":"Saturdays","start":13,"start_minutes":0,"end":14,"end_minutes":30,"type":"B","details":"T - Last Friday, Anniversary-Last Saturday.","zipcode":"10024","latlong":{"lat":40.7897647,"lng":-73.9724231},"street":"144 West 90th Street","new_york_addresses":"144 West 90th Street, New York, NY","notes":"Basement","title":"AMSTERDAM - Amsterdam","name":"St. Gregory's Church","wheelchairaccess":"No"},{"day":"Saturdays","start":14,"start_minutes":30,"end":16,"end_minutes":0,"type":"O","details":"T - Last Friday, Anniversary-Last Saturday.","zipcode":"10024","latlong":{"lat":40.7897647,"lng":-73.9724231},"street":"144 West 90th Street","new_york_addresses":"144 West 90th Street, New York, NY","notes":"Basement","title":"AMSTERDAM - Amsterdam","name":"St. Gregory's Church","wheelchairaccess":"No"},{"day":"Mondays","start":16,"start_minutes":0,"end":17,"end_minutes":30,"type":"BB","details":"T - Last Friday, Anniversary-Last Saturday.","zipcode":"10024","latlong":{"lat":40.7897647,"lng":-73.9724231},"street":"144 West 90th Street","new_york_addresses":"144 West 90th Street, New York, NY","notes":"Basement","title":"AMSTERDAM - Amsterdam","name":"St. Gregory's Church","wheelchairaccess":"No"},{"day":"Tuesdays","start":16,"start_minutes":0,"end":17,"end_minutes":30,"type":"OD","details":"T - Last Friday, Anniversary-Last Saturday.","zipcode":"10024","latlong":{"lat":40.7897647,"lng":-73.9724231},"street":"144 West 90th Street","new_york_addresses":"144 West 90th Street, New York, NY","notes":"Basement","title":"AMSTERDAM - Amsterdam","name":"St. Gregory's Church","wheelchairaccess":"No"},{"day":"Wednesdays","start":16,"start_minutes":0,"end":17,"end_minutes":30,"type":"O","details":"T - Last Friday, Anniversary-Last Saturday.","zipcode":"10024","latlong":{"lat":40.7897647,"lng":-73.9724231},"street":"144 West 90th Street","new_york_addresses":"144 West 90th Street, New York, NY","notes":"Basement","title":"AMSTERDAM - Amsterdam","name":"St. Gregory's Church","wheelchairaccess":"No"},{"day":"Fridays","start":16,"start_minutes":0,"end":17,"end_minutes":30,"type":"S","details":"T - Last Friday, Anniversary-Last Saturday.","zipcode":"10024","latlong":{"lat":40.7897647,"lng":-73.9724231},"street":"144 West 90th Street","new_york_addresses":"144 West 90th Street, New York, NY","notes":"Basement","title":"AMSTERDAM - Amsterdam","name":"St. Gregory's Church","wheelchairaccess":"No"},{"day":"Mondays","start":19,"start_minutes":0,"end":20,"end_minutes":0,"type":"C","details":"Anniv. Meeting last Monday.","zipcode":"10023","latlong":{"lat":40.7789434,"lng":-73.9797758},"street":"141 West 73rd Street","new_york_addresses":"141 West 73rd Street, New York, NY","notes":"","title":"ANSONIA - Ansonia","name":"Hamilton House","wheelchairaccess":"Yes"},{"day":"Fridays","start":19,"start_minutes":0,"end":20,"end_minutes":0,"type":"S","details":"Alternating Step and Tradition meeting.","zipcode":"10023","latlong":{"lat":40.7788723,"lng":-73.97479299999999},"street":"4 West 76th Street","new_york_addresses":"4 West 76th Street, New York, NY","notes":"Meeting in the gym","title":"ATLANTIC WEST STEP & TRADITION - Atlantic West Step & Tradition","name":"Fourth Universalist Church","wheelchairaccess":"No"},{"day":"Tuesdays","start":18,"start_minutes":15,"end":19,"end_minutes":15,"type":"S","details":"All Meetings Are Non-Smoking. Anniversary meeting last Tues at 6:15","zipcode":"10025","latlong":{"lat":40.8018597,"lng":-73.9663042},"street":"221 West 107th Street","new_york_addresses":"221 West 107th Street, New York, NY","notes":"Basement","title":"BLOOMINGDALE - Bloomingdale","name":"Church of the Ascension","wheelchairaccess":"No"},{"day":"Tuesdays","start":19,"start_minutes":30,"end":20,"end_minutes":30,"type":"B","details":"All Meetings Are Non-Smoking. Anniversary meeting last Tues at 6:15","zipcode":"10025","latlong":{"lat":40.8018597,"lng":-73.9663042},"street":"221 West 107th Street","new_york_addresses":"221 West 107th Street, New York, NY","notes":"Basement","title":"BLOOMINGDALE - Bloomingdale","name":"Church of the Ascension","wheelchairaccess":"No"},{"day":"Mondays","start":19,"start_minutes":30,"end":20,"end_minutes":30,"type":"BB","details":"","zipcode":"10025","latlong":{"lat":40.7944661,"lng":-73.97063899999999},"street":"207 West 96th Street","new_york_addresses":"207 West 96th Street, New York, NY","notes":"Basement","title":"BROADWAY AT 96TH - Broadway At 96th","name":"Holy Name Church","wheelchairaccess":"No"},{"day":"Fridays","start":19,"start_minutes":30,"end":20,"end_minutes":30,"type":"O","details":"","zipcode":"10025","latlong":{"lat":40.7944661,"lng":-73.97063899999999},"street":"207 West 96th Street","new_york_addresses":"207 West 96th Street, New York, NY","notes":"Basement","title":"BROADWAY AT 96TH - Broadway At 96th","name":"Holy Name Church","wheelchairaccess":"No"},{"day":"Thursdays","start":19,"start_minutes":0,"end":20,"end_minutes":0,"type":"OD","details":"Men's Meeting","zipcode":"10024","latlong":{"lat":40.7856479,"lng":-73.9777625},"street":"215 West 82nd Street","new_york_addresses":"215 West 82nd Street, New York, NY","notes":"","title":"CADILLACS FOR EVERYONE - Cadillacs For Everyone","name":"Holy Trinity Rectory","wheelchairaccess":"Yes"},{"day":"Tuesdays","start":24,"start_minutes":30,"end":13,"end_minutes":30,"type":"C","details":"","zipcode":"10025","latlong":{"lat":40.8070418,"lng":-73.9651341},"street":"601 West 114th Street","new_york_addresses":"601 West 114th Street, New York, NY","notes":"(2nd Red Door)","title":"CAMPUS CHEER - Campus Cheer","name":"Broadway Presbyterian Church","wheelchairaccess":"No"},{"day":"Thursdays","start":24,"start_minutes":30,"end":13,"end_minutes":30,"type":"C","details":"","zipcode":"10025","latlong":{"lat":40.8070418,"lng":-73.9651341},"street":"601 West 114th Street","new_york_addresses":"601 West 114th Street, New York, NY","notes":"(2nd Red Door)","title":"CAMPUS CHEER - Campus Cheer","name":"Broadway Presbyterian Church","wheelchairaccess":"No"},{"day":"Tuesdays","start":20,"start_minutes":15,"end":21,"end_minutes":30,"type":"C","details":"T Last Thursday","zipcode":"10023","latlong":{"lat":41.0882898,"lng":-80.7434787},"street":"Central Park West & 76th Street","new_york_addresses":"Central Park West & 76th Street, New York, NY","notes":"basement gymnasium","title":"CENTRAL PARK WEST - Central Park West","name":"Universalist Church","wheelchairaccess":"No"},{"day":"Mondays","start":19,"start_minutes":30,"end":20,"end_minutes":45,"type":"O","details":"10:15pm = Topic Meeting","zipcode":"10023","latlong":{"lat":40.7709301,"lng":-73.9806641},"street":"5 West 63rd Street","new_york_addresses":"5 West 63rd Street, New York, NY","notes":"Downstairs in large meeting room.","title":"CHELSEA RIVERSIDE -","name":"West Side YMCA at 63rd Street","wheelchairaccess":"Yes"},{"day":"Mondays","start":21,"start_minutes":0,"end":22,"end_minutes":0,"type":"B","details":"10:15pm = Topic Meeting","zipcode":"10023","latlong":{"lat":40.7709301,"lng":-73.9806641},"street":"5 West 63rd Street","new_york_addresses":"5 West 63rd Street, New York, NY","notes":"Downstairs in large meeting room.","title":"CHELSEA RIVERSIDE -","name":"West Side YMCA at 63rd Street","wheelchairaccess":"Yes"},{"day":"Mondays","start":22,"start_minutes":15,"end":23,"end_minutes":15,"type":"C","details":"10:15pm = Topic Meeting","zipcode":"10023","latlong":{"lat":40.7709301,"lng":-73.9806641},"street":"5 West 63rd Street","new_york_addresses":"5 West 63rd Street, New York, NY","notes":"Downstairs in large meeting room.","title":"CHELSEA RIVERSIDE -","name":"West Side YMCA at 63rd Street","wheelchairaccess":"Yes"},{"day":"Fridays","start":18,"start_minutes":30,"end":19,"end_minutes":30,"type":"C","details":"S 1st & T Last Friday","zipcode":"10023","latlong":{"lat":40.7788723,"lng":-73.97479299999999},"street":"4 West 76th Street","new_york_addresses":"4 West 76th Street, New York, NY","notes":"(In the gym)","title":"CHOCK FULL OF SOBRIETY -","name":"Universalist Church","wheelchairaccess":"No"},{"day":"Sundays","start":18,"start_minutes":0,"end":19,"end_minutes":0,"type":"B","details":"","zipcode":"10023","latlong":{"lat":40.7787393,"lng":-73.97455099999999},"street":"160 Central Park West","new_york_addresses":"160 Central Park West, New York, NY","notes":"Gym basement.","title":"CLASSEN HALL     (:II) - Classen Hall    (:II)","name":"Fourth Universalist Society","wheelchairaccess":"No"},{"day":"Sundays","start":18,"start_minutes":15,"end":19,"end_minutes":45,"type":"S","details":"Enter basement level @ red door on left side of the building.","zipcode":"10023","latlong":{"lat":40.774323,"lng":-73.9839099},"street":"152 West 66th Street","new_york_addresses":"152 West 66th Street, New York, NY","notes":"Basement Level Chapel","title":"CLASSEN HALL STEP MEETING  ( :I ) - Classen Hall","name":"Good Shepherd Faith Church","wheelchairaccess":"No"},{"day":"Saturdays","start":17,"start_minutes":0,"end":18,"end_minutes":0,"type":"C","details":"Children are welcome at all meetings. All meetings are non-smoking.","zipcode":"10025","latlong":{"lat":40.7912092,"lng":-73.9653891},"street":"3 West 95th Street","new_york_addresses":"3 West 95th Street, New York, NY","notes":"Lower Level Auditorium","title":"COLUMBUS AT FIVE - Columbus At Five","name":"Second Presbyterian Church","wheelchairaccess":"No"},{"day":"Sundays","start":17,"start_minutes":0,"end":18,"end_minutes":0,"type":"C","details":"Children are welcome at all meetings. All meetings are non-smoking.","zipcode":"10025","latlong":{"lat":40.7912092,"lng":-73.9653891},"street":"3 West 95th Street","new_york_addresses":"3 West 95th Street, New York, NY","notes":"Lower Level Auditorium","title":"COLUMBUS AT FIVE - Columbus At Five","name":"Second Presbyterian Church","wheelchairaccess":"No"},{"day":"Fridays","start":19,"start_minutes":0,"end":20,"end_minutes":0,"type":"C","details":"Children are welcome at all meetings. All meetings are non-smoking.","zipcode":"10025","latlong":{"lat":40.7912092,"lng":-73.9653891},"street":"3 West 95th Street","new_york_addresses":"3 West 95th Street, New York, NY","notes":"Lower Level Auditorium","title":"COLUMBUS AT FIVE - Columbus At Five","name":"Second Presbyterian Church","wheelchairaccess":"No"},{"day":"Fridays","start":19,"start_minutes":30,"end":20,"end_minutes":45,"type":"C","details":"","zipcode":"10024","latlong":{"lat":40.78499559999999,"lng":-73.9800077},"street":"251 West 80th Street","new_york_addresses":"251 West 80th Street, New York, NY","notes":"","title":"EIGHTIETH STREET BEGINNERS -","name":"All Angels Church","wheelchairaccess":"Yes"},{"day":"Fridays","start":7,"start_minutes":0,"end":8,"end_minutes":0,"type":"C","details":"","zipcode":"10023","latlong":{"lat":40.7770609,"lng":-73.97954659999999},"street":"111 West 71st Street","new_york_addresses":"111 West 71st Street, New York, NY","notes":"","title":"FAST BREAK - Fast Break","name":"Hargrave House","wheelchairaccess":"No"},{"day":"Mondays","start":7,"start_minutes":0,"end":8,"end_minutes":0,"type":"C","details":"","zipcode":"10023","latlong":{"lat":40.7770609,"lng":-73.97954659999999},"street":"111 West 71st Street","new_york_addresses":"111 West 71st Street, New York, NY","notes":"","title":"FAST BREAK - Fast Break","name":"Hargrave House","wheelchairaccess":"No"},{"day":"Tuesdays","start":7,"start_minutes":0,"end":8,"end_minutes":0,"type":"C","details":"","zipcode":"10023","latlong":{"lat":40.7770609,"lng":-73.97954659999999},"street":"111 West 71st Street","new_york_addresses":"111 West 71st Street, New York, NY","notes":"","title":"FAST BREAK - Fast Break","name":"Hargrave House","wheelchairaccess":"No"},{"day":"Wednesdays","start":7,"start_minutes":0,"end":8,"end_minutes":0,"type":"C","details":"","zipcode":"10023","latlong":{"lat":40.7770609,"lng":-73.97954659999999},"street":"111 West 71st Street","new_york_addresses":"111 West 71st Street, New York, NY","notes":"","title":"FAST BREAK - Fast Break","name":"Hargrave House","wheelchairaccess":"No"},{"day":"Thursdays","start":7,"start_minutes":0,"end":8,"end_minutes":0,"type":"S","details":"","zipcode":"10023","latlong":{"lat":40.7770609,"lng":-73.97954659999999},"street":"111 West 71st Street","new_york_addresses":"111 West 71st Street, New York, NY","notes":"","title":"FAST BREAK - Fast Break","name":"Hargrave House","wheelchairaccess":"No"},{"day":"Fridays","start":8,"start_minutes":15,"end":9,"end_minutes":15,"type":"C","details":"","zipcode":"10023","latlong":{"lat":40.7770609,"lng":-73.97954659999999},"street":"111 West 71st Street","new_york_addresses":"111 West 71st Street, New York, NY","notes":"","title":"FAST BREAK - Fast Break","name":"Hargrave House","wheelchairaccess":"No"},{"day":"Mondays","start":8,"start_minutes":15,"end":9,"end_minutes":15,"type":"C","details":"","zipcode":"10023","latlong":{"lat":40.7770609,"lng":-73.97954659999999},"street":"111 West 71st Street","new_york_addresses":"111 West 71st Street, New York, NY","notes":"","title":"FAST BREAK - Fast Break","name":"Hargrave House","wheelchairaccess":"No"},{"day":"Tuesdays","start":8,"start_minutes":15,"end":9,"end_minutes":15,"type":"C","details":"","zipcode":"10023","latlong":{"lat":40.7770609,"lng":-73.97954659999999},"street":"111 West 71st Street","new_york_addresses":"111 West 71st Street, New York, NY","notes":"","title":"FAST BREAK - Fast Break","name":"Hargrave House","wheelchairaccess":"No"},{"day":"Wednesdays","start":8,"start_minutes":15,"end":9,"end_minutes":15,"type":"C","details":"","zipcode":"10023","latlong":{"lat":40.7770609,"lng":-73.97954659999999},"street":"111 West 71st Street","new_york_addresses":"111 West 71st Street, New York, NY","notes":"","title":"FAST BREAK - Fast Break","name":"Hargrave House","wheelchairaccess":"No"},{"day":"Thursdays","start":8,"start_minutes":15,"end":9,"end_minutes":15,"type":"C","details":"","zipcode":"10023","latlong":{"lat":40.7770609,"lng":-73.97954659999999},"street":"111 West 71st Street","new_york_addresses":"111 West 71st Street, New York, NY","notes":"","title":"FAST BREAK - Fast Break","name":"Hargrave House","wheelchairaccess":"No"},{"day":"Sundays","start":8,"start_minutes":0,"end":9,"end_minutes":0,"type":"C","details":"","zipcode":"10023","latlong":{"lat":40.7709301,"lng":-73.9806641},"street":"5 West 63rd Street","new_york_addresses":"5 West 63rd Street, New York, NY","notes":"1st Floor","title":"FAST BREAK WEEKEND -","name":"West Side YMCA","wheelchairaccess":"Yes"},{"day":"Saturdays","start":8,"start_minutes":0,"end":9,"end_minutes":0,"type":"C","details":"","zipcode":"10023","latlong":{"lat":40.7709301,"lng":-73.9806641},"street":"5 West 63rd Street","new_york_addresses":"5 West 63rd Street, New York, NY","notes":"1st Floor","title":"FAST BREAK WEEKEND -","name":"West Side YMCA","wheelchairaccess":"Yes"},{"day":"Saturdays","start":10,"start_minutes":30,"end":11,"end_minutes":30,"type":"S","details":"T 1st Saturday @ 12:30pm","zipcode":"10023","latlong":{"lat":40.7709301,"lng":-73.9806641},"street":"5 West 63rd Street","new_york_addresses":"5 West 63rd Street, New York, NY","notes":"","title":"FIRESIDE  (:II)  WEEKEND MEETINGS ONLY -","name":"West Side YMCA","wheelchairaccess":"No"},{"day":"Sundays","start":24,"start_minutes":30,"end":13,"end_minutes":30,"type":"B","details":"T 1st Saturday @ 12:30pm","zipcode":"10023","latlong":{"lat":40.7709301,"lng":-73.9806641},"street":"5 West 63rd Street","new_york_addresses":"5 West 63rd Street, New York, NY","notes":"","title":"FIRESIDE  (:II)  WEEKEND MEETINGS ONLY -","name":"West Side YMCA","wheelchairaccess":"No"},{"day":"Saturdays","start":24,"start_minutes":30,"end":13,"end_minutes":30,"type":"S","details":"T 1st Saturday @ 12:30pm","zipcode":"10023","latlong":{"lat":40.7709301,"lng":-73.9806641},"street":"5 West 63rd Street","new_york_addresses":"5 West 63rd Street, New York, NY","notes":"","title":"FIRESIDE  (:II)  WEEKEND MEETINGS ONLY -","name":"West Side YMCA","wheelchairaccess":"No"},{"day":"Mondays","start":6,"start_minutes":0,"end":7,"end_minutes":0,"type":"OD","details":"Last Sat. of month at 10:15 = anniversary meeting","zipcode":"10025","latlong":{"lat":40.7944661,"lng":-73.97063899999999},"street":"207 West 96th Street","new_york_addresses":"207 West 96th Street, New York, NY","notes":"Basement","title":"FIRST THINGS FIRST - First Things First","name":"Holy Name Church","wheelchairaccess":"No"},{"day":"Wednesdays","start":6,"start_minutes":0,"end":7,"end_minutes":0,"type":"OD","details":"Last Sat. of month at 10:15 = anniversary meeting","zipcode":"10025","latlong":{"lat":40.7944661,"lng":-73.97063899999999},"street":"207 West 96th Street","new_york_addresses":"207 West 96th Street, New York, NY","notes":"Basement","title":"FIRST THINGS FIRST - First Things First","name":"Holy Name Church","wheelchairaccess":"No"},{"day":"Saturdays","start":6,"start_minutes":0,"end":7,"end_minutes":0,"type":"OD","details":"Last Sat. of month at 10:15 = anniversary meeting","zipcode":"10025","latlong":{"lat":40.7944661,"lng":-73.97063899999999},"street":"207 West 96th Street","new_york_addresses":"207 West 96th Street, New York, NY","notes":"Basement","title":"FIRST THINGS FIRST - First Things First","name":"Holy Name Church","wheelchairaccess":"No"},{"day":"Thursdays","start":6,"start_minutes":0,"end":7,"end_minutes":0,"type":"S","details":"Last Sat. of month at 10:15 = anniversary meeting","zipcode":"10025","latlong":{"lat":40.7944661,"lng":-73.97063899999999},"street":"207 West 96th Street","new_york_addresses":"207 West 96th Street, New York, NY","notes":"Basement","title":"FIRST THINGS FIRST - First Things First","name":"Holy Name Church","wheelchairaccess":"No"},{"day":"Sundays","start":6,"start_minutes":0,"end":7,"end_minutes":0,"type":"OD","details":"Last Sat. of month at 10:15 = anniversary meeting","zipcode":"10025","latlong":{"lat":40.7944661,"lng":-73.97063899999999},"street":"207 West 96th Street","new_york_addresses":"207 West 96th Street, New York, NY","notes":"Basement","title":"FIRST THINGS FIRST - First Things First","name":"Holy Name Church","wheelchairaccess":"No"},{"day":"Tuesdays","start":6,"start_minutes":0,"end":7,"end_minutes":0,"type":"OD","details":"Last Sat. of month at 10:15 = anniversary meeting","zipcode":"10025","latlong":{"lat":40.7944661,"lng":-73.97063899999999},"street":"207 West 96th Street","new_york_addresses":"207 West 96th Street, New York, NY","notes":"Basement","title":"FIRST THINGS FIRST - First Things First","name":"Holy Name Church","wheelchairaccess":"No"},{"day":"Fridays","start":6,"start_minutes":0,"end":7,"end_minutes":0,"type":"BB","details":"Last Sat. of month at 10:15 = anniversary meeting","zipcode":"10025","latlong":{"lat":40.7944661,"lng":-73.97063899999999},"street":"207 West 96th Street","new_york_addresses":"207 West 96th Street, New York, NY","notes":"Basement","title":"FIRST THINGS FIRST - First Things First","name":"Holy Name Church","wheelchairaccess":"No"},{"day":"Fridays","start":7,"start_minutes":15,"end":8,"end_minutes":15,"type":"C","details":"Last Sat. of month at 10:15 = anniversary meeting","zipcode":"10025","latlong":{"lat":40.7944661,"lng":-73.97063899999999},"street":"207 West 96th Street","new_york_addresses":"207 West 96th Street, New York, NY","notes":"Basement","title":"FIRST THINGS FIRST - First Things First","name":"Holy Name Church","wheelchairaccess":"No"},{"day":"Wednesdays","start":7,"start_minutes":15,"end":8,"end_minutes":15,"type":"C","details":"Last Sat. of month at 10:15 = anniversary meeting","zipcode":"10025","latlong":{"lat":40.7944661,"lng":-73.97063899999999},"street":"207 West 96th Street","new_york_addresses":"207 West 96th Street, New York, NY","notes":"Basement","title":"FIRST THINGS FIRST - First Things First","name":"Holy Name Church","wheelchairaccess":"No"},{"day":"Saturdays","start":7,"start_minutes":15,"end":8,"end_minutes":15,"type":"S","details":"Last Sat. of month at 10:15 = anniversary meeting","zipcode":"10025","latlong":{"lat":40.7944661,"lng":-73.97063899999999},"street":"207 West 96th Street","new_york_addresses":"207 West 96th Street, New York, NY","notes":"Basement","title":"FIRST THINGS FIRST - First Things First","name":"Holy Name Church","wheelchairaccess":"No"},{"day":"Mondays","start":7,"start_minutes":15,"end":8,"end_minutes":15,"type":"C","details":"Last Sat. of month at 10:15 = anniversary meeting","zipcode":"10025","latlong":{"lat":40.7944661,"lng":-73.97063899999999},"street":"207 West 96th Street","new_york_addresses":"207 West 96th Street, New York, NY","notes":"Basement","title":"FIRST THINGS FIRST - First Things First","name":"Holy Name Church","wheelchairaccess":"No"},{"day":"Thursdays","start":7,"start_minutes":15,"end":8,"end_minutes":15,"type":"C","details":"Last Sat. of month at 10:15 = anniversary meeting","zipcode":"10025","latlong":{"lat":40.7944661,"lng":-73.97063899999999},"street":"207 West 96th Street","new_york_addresses":"207 West 96th Street, New York, NY","notes":"Basement","title":"FIRST THINGS FIRST - First Things First","name":"Holy Name Church","wheelchairaccess":"No"},{"day":"Sundays","start":7,"start_minutes":15,"end":8,"end_minutes":15,"type":"C","details":"Last Sat. of month at 10:15 = anniversary meeting","zipcode":"10025","latlong":{"lat":40.7944661,"lng":-73.97063899999999},"street":"207 West 96th Street","new_york_addresses":"207 West 96th Street, New York, NY","notes":"Basement","title":"FIRST THINGS FIRST - First Things First","name":"Holy Name Church","wheelchairaccess":"No"},{"day":"Tuesdays","start":7,"start_minutes":15,"end":8,"end_minutes":15,"type":"C","details":"Last Sat. of month at 10:15 = anniversary meeting","zipcode":"10025","latlong":{"lat":40.7944661,"lng":-73.97063899999999},"street":"207 West 96th Street","new_york_addresses":"207 West 96th Street, New York, NY","notes":"Basement","title":"FIRST THINGS FIRST - First Things First","name":"Holy Name Church","wheelchairaccess":"No"},{"day":"Fridays","start":8,"start_minutes":45,"end":9,"end_minutes":45,"type":"B","details":"Last Sat. of month at 10:15 = anniversary meeting","zipcode":"10025","latlong":{"lat":40.7944661,"lng":-73.97063899999999},"street":"207 West 96th Street","new_york_addresses":"207 West 96th Street, New York, NY","notes":"Basement","title":"FIRST THINGS FIRST - First Things First","name":"Holy Name Church","wheelchairaccess":"No"},{"day":"Wednesdays","start":8,"start_minutes":45,"end":9,"end_minutes":45,"type":"B","details":"Last Sat. of month at 10:15 = anniversary meeting","zipcode":"10025","latlong":{"lat":40.7944661,"lng":-73.97063899999999},"street":"207 West 96th Street","new_york_addresses":"207 West 96th Street, New York, NY","notes":"Basement","title":"FIRST THINGS FIRST - First Things First","name":"Holy Name Church","wheelchairaccess":"No"},{"day":"Saturdays","start":8,"start_minutes":45,"end":9,"end_minutes":45,"type":"B","details":"Last Sat. of month at 10:15 = anniversary meeting","zipcode":"10025","latlong":{"lat":40.7944661,"lng":-73.97063899999999},"street":"207 West 96th Street","new_york_addresses":"207 West 96th Street, New York, NY","notes":"Basement","title":"FIRST THINGS FIRST - First Things First","name":"Holy Name Church","wheelchairaccess":"No"},{"day":"Mondays","start":8,"start_minutes":45,"end":9,"end_minutes":45,"type":"B","details":"Last Sat. of month at 10:15 = anniversary meeting","zipcode":"10025","latlong":{"lat":40.7944661,"lng":-73.97063899999999},"street":"207 West 96th Street","new_york_addresses":"207 West 96th Street, New York, NY","notes":"Basement","title":"FIRST THINGS FIRST - First Things First","name":"Holy Name Church","wheelchairaccess":"No"},{"day":"Thursdays","start":8,"start_minutes":45,"end":9,"end_minutes":45,"type":"B","details":"Last Sat. of month at 10:15 = anniversary meeting","zipcode":"10025","latlong":{"lat":40.7944661,"lng":-73.97063899999999},"street":"207 West 96th Street","new_york_addresses":"207 West 96th Street, New York, NY","notes":"Basement","title":"FIRST THINGS FIRST - First Things First","name":"Holy Name Church","wheelchairaccess":"No"},{"day":"Sundays","start":8,"start_minutes":45,"end":9,"end_minutes":45,"type":"B","details":"Last Sat. of month at 10:15 = anniversary meeting","zipcode":"10025","latlong":{"lat":40.7944661,"lng":-73.97063899999999},"street":"207 West 96th Street","new_york_addresses":"207 West 96th Street, New York, NY","notes":"Basement","title":"FIRST THINGS FIRST - First Things First","name":"Holy Name Church","wheelchairaccess":"No"},{"day":"Tuesdays","start":8,"start_minutes":45,"end":9,"end_minutes":45,"type":"B","details":"Last Sat. of month at 10:15 = anniversary meeting","zipcode":"10025","latlong":{"lat":40.7944661,"lng":-73.97063899999999},"street":"207 West 96th Street","new_york_addresses":"207 West 96th Street, New York, NY","notes":"Basement","title":"FIRST THINGS FIRST - First Things First","name":"Holy Name Church","wheelchairaccess":"No"},{"day":"Tuesdays","start":10,"start_minutes":15,"end":11,"end_minutes":15,"type":"C","details":"Last Sat. of month at 10:15 = anniversary meeting","zipcode":"10025","latlong":{"lat":40.7944661,"lng":-73.97063899999999},"street":"207 West 96th Street","new_york_addresses":"207 West 96th Street, New York, NY","notes":"Basement","title":"FIRST THINGS FIRST - First Things First","name":"Holy Name Church","wheelchairaccess":"No"},{"day":"Fridays","start":10,"start_minutes":15,"end":11,"end_minutes":15,"type":"BB","details":"Last Sat. of month at 10:15 = anniversary meeting","zipcode":"10025","latlong":{"lat":40.7944661,"lng":-73.97063899999999},"street":"207 West 96th Street","new_york_addresses":"207 West 96th Street, New York, NY","notes":"Basement","title":"FIRST THINGS FIRST - First Things First","name":"Holy Name Church","wheelchairaccess":"No"},{"day":"Wednesdays","start":10,"start_minutes":15,"end":11,"end_minutes":15,"type":"S","details":"Last Sat. of month at 10:15 = anniversary meeting","zipcode":"10025","latlong":{"lat":40.7944661,"lng":-73.97063899999999},"street":"207 West 96th Street","new_york_addresses":"207 West 96th Street, New York, NY","notes":"Basement","title":"FIRST THINGS FIRST - First Things First","name":"Holy Name Church","wheelchairaccess":"No"},{"day":"Saturdays","start":10,"start_minutes":15,"end":11,"end_minutes":15,"type":"S","details":"Last Sat. of month at 10:15 = anniversary meeting","zipcode":"10025","latlong":{"lat":40.7944661,"lng":-73.97063899999999},"street":"207 West 96th Street","new_york_addresses":"207 West 96th Street, New York, NY","notes":"Basement","title":"FIRST THINGS FIRST - First Things First","name":"Holy Name Church","wheelchairaccess":"No"},{"day":"Mondays","start":10,"start_minutes":15,"end":11,"end_minutes":15,"type":"C","details":"Last Sat. of month at 10:15 = anniversary meeting","zipcode":"10025","latlong":{"lat":40.7944661,"lng":-73.97063899999999},"street":"207 West 96th Street","new_york_addresses":"207 West 96th Street, New York, NY","notes":"Basement","title":"FIRST THINGS FIRST - First Things First","name":"Holy Name Church","wheelchairaccess":"No"},{"day":"Thursdays","start":10,"start_minutes":15,"end":11,"end_minutes":15,"type":"OD","details":"Last Sat. of month at 10:15 = anniversary meeting","zipcode":"10025","latlong":{"lat":40.7944661,"lng":-73.97063899999999},"street":"207 West 96th Street","new_york_addresses":"207 West 96th Street, New York, NY","notes":"Basement","title":"FIRST THINGS FIRST - First Things First","name":"Holy Name Church","wheelchairaccess":"No"},{"day":"Sundays","start":10,"start_minutes":15,"end":11,"end_minutes":15,"type":"T","details":"Last Sat. of month at 10:15 = anniversary meeting","zipcode":"10025","latlong":{"lat":40.7944661,"lng":-73.97063899999999},"street":"207 West 96th Street","new_york_addresses":"207 West 96th Street, New York, NY","notes":"Basement","title":"FIRST THINGS FIRST - First Things First","name":"Holy Name Church","wheelchairaccess":"No"},{"day":"Fridays","start":18,"start_minutes":30,"end":19,"end_minutes":45,"type":"S","details":"MEETING NOW TAKES PLACE YEAR ROUND! Up concrete steps, take stairs on left, 2nd Floor (Sandford Hall)","zipcode":"10024","latlong":{"lat":40.7843147,"lng":-73.97173169999999},"street":"26 West 84th Street","new_york_addresses":"26 West 84th Street, New York, NY","notes":"","title":"FRIDAY NIGHT STEP -","name":"Church of St. Matthew and St. Timothy","wheelchairaccess":"No"},{"day":"Sundays","start":16,"start_minutes":30,"end":17,"end_minutes":30,"type":"OD","details":"Spanish speaking meetings.","zipcode":"10025","latlong":{"lat":40.79474159999999,"lng":-73.96988329999999},"street":"200 West 97th Street","new_york_addresses":"200 West 97th Street, New York, NY","notes":"Basement","title":"GRUPO CAMINO REAL - Grupo Camino Real","name":"Holy Name School","wheelchairaccess":"No"},{"day":"Thursdays","start":19,"start_minutes":0,"end":20,"end_minutes":0,"type":"C","details":"Spanish speaking meetings.","zipcode":"10025","latlong":{"lat":40.79474159999999,"lng":-73.96988329999999},"street":"200 West 97th Street","new_york_addresses":"200 West 97th Street, New York, NY","notes":"Basement","title":"GRUPO CAMINO REAL - Grupo Camino Real","name":"Holy Name School","wheelchairaccess":"No"},{"day":"Mondays","start":19,"start_minutes":30,"end":20,"end_minutes":30,"type":"OD","details":"B Last Friday Bilingual (English-Spanish) Meetings.","zipcode":"10025","latlong":{"lat":40.8020319,"lng":-73.9659862},"street":"218 West 108th Street","new_york_addresses":"218 West 108th Street, New York, NY","notes":"Main Floor","title":"GRUPO DULCES 24 - Grupo Dulces 24","name":"Grace House","wheelchairaccess":"Yes"},{"day":"Wednesdays","start":19,"start_minutes":30,"end":20,"end_minutes":30,"type":"C","details":"B Last Friday Bilingual (English-Spanish) Meetings.","zipcode":"10025","latlong":{"lat":40.8020319,"lng":-73.9659862},"street":"218 West 108th Street","new_york_addresses":"218 West 108th Street, New York, NY","notes":"Main Floor","title":"GRUPO DULCES 24 - Grupo Dulces 24","name":"Grace House","wheelchairaccess":"Yes"},{"day":"Fridays","start":19,"start_minutes":30,"end":20,"end_minutes":30,"type":"OD","details":"B Last Friday Bilingual (English-Spanish) Meetings.","zipcode":"10025","latlong":{"lat":40.8020319,"lng":-73.9659862},"street":"218 West 108th Street","new_york_addresses":"218 West 108th Street, New York, NY","notes":"Main Floor","title":"GRUPO DULCES 24 - Grupo Dulces 24","name":"Grace House","wheelchairaccess":"Yes"},{"day":"Sundays","start":19,"start_minutes":30,"end":20,"end_minutes":30,"type":"O","details":"B Last Friday Bilingual (English-Spanish) Meetings.","zipcode":"10025","latlong":{"lat":40.8020319,"lng":-73.9659862},"street":"218 West 108th Street","new_york_addresses":"218 West 108th Street, New York, NY","notes":"Main Floor","title":"GRUPO DULCES 24 - Grupo Dulces 24","name":"Grace House","wheelchairaccess":"Yes"},{"day":"Tuesdays","start":19,"start_minutes":30,"end":20,"end_minutes":30,"type":"O","details":"Spanish speaking meeting.","zipcode":"10025","latlong":{"lat":40.798687,"lng":-73.9649286},"street":"125 West 104th Street","new_york_addresses":"125 West 104th Street, New York, NY","notes":"1st Floor","title":"GRUPO LUZ DIVINA -","name":"Iglesia Metodista Grace","wheelchairaccess":"Yes"},{"day":"Thursdays","start":19,"start_minutes":0,"end":20,"end_minutes":0,"type":"B","details":"","zipcode":"10023","latlong":{"lat":40.7789434,"lng":-73.9797758},"street":"141 West 73rd Street","new_york_addresses":"141 West 73rd Street, New York, NY","notes":"","title":"HARGRAVE - Hargrave House","name":"Hamilton House","wheelchairaccess":"Yes"},{"day":"Fridays","start":19,"start_minutes":0,"end":20,"end_minutes":0,"type":"B","details":"","zipcode":"10023","latlong":{"lat":40.7789434,"lng":-73.9797758},"street":"141 West 73rd Street","new_york_addresses":"141 West 73rd Street, New York, NY","notes":"","title":"HARGRAVE - Hargrave House","name":"Hamilton House","wheelchairaccess":"Yes"},{"day":"Thursdays","start":20,"start_minutes":15,"end":21,"end_minutes":15,"type":"C","details":"","zipcode":"10023","latlong":{"lat":40.7789434,"lng":-73.9797758},"street":"141 West 73rd Street","new_york_addresses":"141 West 73rd Street, New York, NY","notes":"","title":"HARGRAVE - Hargrave House","name":"Hamilton House","wheelchairaccess":"Yes"},{"day":"Saturdays","start":18,"start_minutes":0,"end":19,"end_minutes":0,"type":"S","details":"Wed.6pm=Interpreted for the deaf and hard of hearing. Gay Men & Women Focus.  All are welcome.","zipcode":"10023","latlong":{"lat":40.7795884,"lng":-73.98226950000002},"street":"236 West 73rd Street","new_york_addresses":"236 West 73rd Street, New York, NY","notes":"5th Floor","title":"LAMBDA WEST - Lambda West","name":"Rutgers Church","wheelchairaccess":"Yes"},{"day":"Wednesdays","start":18,"start_minutes":0,"end":19,"end_minutes":0,"type":"OD","details":"Wed.6pm=Interpreted for the deaf and hard of hearing. Gay Men & Women Focus.  All are welcome.","zipcode":"10023","latlong":{"lat":40.7795884,"lng":-73.98226950000002},"street":"236 West 73rd Street","new_york_addresses":"236 West 73rd Street, New York, NY","notes":"5th Floor","title":"LAMBDA WEST - Lambda West","name":"Rutgers Church","wheelchairaccess":"Yes"},{"day":"Wednesdays","start":19,"start_minutes":15,"end":20,"end_minutes":15,"type":"B","details":"Wed.6pm=Interpreted for the deaf and hard of hearing. Gay Men & Women Focus.  All are welcome.","zipcode":"10023","latlong":{"lat":40.7795884,"lng":-73.98226950000002},"street":"236 West 73rd Street","new_york_addresses":"236 West 73rd Street, New York, NY","notes":"5th Floor","title":"LAMBDA WEST - Lambda West","name":"Rutgers Church","wheelchairaccess":"Yes"},{"day":"Wednesdays","start":20,"start_minutes":30,"end":21,"end_minutes":30,"type":"C","details":"Wed.6pm=Interpreted for the deaf and hard of hearing. Gay Men & Women Focus.  All are welcome.","zipcode":"10023","latlong":{"lat":40.7795884,"lng":-73.98226950000002},"street":"236 West 73rd Street","new_york_addresses":"236 West 73rd Street, New York, NY","notes":"5th Floor","title":"LAMBDA WEST - Lambda West","name":"Rutgers Church","wheelchairaccess":"Yes"},{"day":"Wednesdays","start":19,"start_minutes":0,"end":20,"end_minutes":0,"type":"B","details":"","zipcode":"10025","latlong":{"lat":40.79979790000001,"lng":-73.96564289999999},"street":"165 West 105th Street","new_york_addresses":"165 West 105th Street, New York, NY","notes":"Basement","title":"MANHATTAN VALLEY - Manhattan Valley","name":"West End Presbyterian Church","wheelchairaccess":"No"},{"day":"Sundays","start":17,"start_minutes":45,"end":19,"end_minutes":0,"type":"C","details":"","zipcode":"10025","latlong":{"lat":40.7944661,"lng":-73.97063899999999},"street":"207 West 96th Street","new_york_addresses":"207 West 96th Street, New York, NY","notes":"","title":"METROPOLIS MEN'S MEETING -","name":"Holy Name Church","wheelchairaccess":"No"},{"day":"Fridays","start":13,"start_minutes":0,"end":14,"end_minutes":0,"type":"S","details":"Mon=11th Step Meditation, Fri= Alt.Step & Tradition Meeting","zipcode":"10025","latlong":{"lat":40.7944661,"lng":-73.97063899999999},"street":"207 West 96th Street","new_york_addresses":"207 West 96th Street, New York, NY","notes":"Basement","title":"MID-DAY CHEER - Mid-Day Cheer","name":"Holy Name Church Rectory","wheelchairaccess":"No"},{"day":"Mondays","start":13,"start_minutes":0,"end":14,"end_minutes":15,"type":"S","details":"Mon=11th Step Meditation, Fri= Alt.Step & Tradition Meeting","zipcode":"10025","latlong":{"lat":40.7944661,"lng":-73.97063899999999},"street":"207 West 96th Street","new_york_addresses":"207 West 96th Street, New York, NY","notes":"Basement","title":"MID-DAY CHEER - Mid-Day Cheer","name":"Holy Name Church Rectory","wheelchairaccess":"No"},{"day":"Tuesdays","start":13,"start_minutes":0,"end":14,"end_minutes":15,"type":"BB","details":"Mon=11th Step Meditation, Fri= Alt.Step & Tradition Meeting","zipcode":"10025","latlong":{"lat":40.7944661,"lng":-73.97063899999999},"street":"207 West 96th Street","new_york_addresses":"207 West 96th Street, New York, NY","notes":"Basement","title":"MID-DAY CHEER - Mid-Day Cheer","name":"Holy Name Church Rectory","wheelchairaccess":"No"},{"day":"Wednesdays","start":13,"start_minutes":0,"end":14,"end_minutes":15,"type":"OD","details":"Mon=11th Step Meditation, Fri= Alt.Step & Tradition Meeting","zipcode":"10025","latlong":{"lat":40.7944661,"lng":-73.97063899999999},"street":"207 West 96th Street","new_york_addresses":"207 West 96th Street, New York, NY","notes":"Basement","title":"MID-DAY CHEER - Mid-Day Cheer","name":"Holy Name Church Rectory","wheelchairaccess":"No"},{"day":"Thursdays","start":13,"start_minutes":0,"end":14,"end_minutes":15,"type":"C","details":"Mon=11th Step Meditation, Fri= Alt.Step & Tradition Meeting","zipcode":"10025","latlong":{"lat":40.7944661,"lng":-73.97063899999999},"street":"207 West 96th Street","new_york_addresses":"207 West 96th Street, New York, NY","notes":"Basement","title":"MID-DAY CHEER - Mid-Day Cheer","name":"Holy Name Church Rectory","wheelchairaccess":"No"},{"day":"Saturdays","start":18,"start_minutes":30,"end":19,"end_minutes":30,"type":"B","details":"All meetings are non-smoking.","zipcode":"10025","latlong":{"lat":40.7927122,"lng":-73.97267219999999},"street":"2504 Broadway","new_york_addresses":"2504 Broadway, New York, NY","notes":"Basement","title":"MORNINGSIDE - Morningside","name":"Advent Lutheran Church","wheelchairaccess":"Yes"},{"day":"Saturdays","start":20,"start_minutes":0,"end":21,"end_minutes":0,"type":"OD","details":"All meetings are non-smoking.","zipcode":"10025","latlong":{"lat":40.7927122,"lng":-73.97267219999999},"street":"2504 Broadway","new_york_addresses":"2504 Broadway, New York, NY","notes":"Basement","title":"MORNINGSIDE - Morningside","name":"Advent Lutheran Church","wheelchairaccess":"Yes"},{"day":"Saturdays","start":20,"start_minutes":0,"end":21,"end_minutes":0,"type":"S","details":"All meetings are non-smoking.","zipcode":"10025","latlong":{"lat":40.7927122,"lng":-73.97267219999999},"street":"2504 Broadway","new_york_addresses":"2504 Broadway, New York, NY","notes":"Basement","title":"MORNINGSIDE - Morningside","name":"Advent Lutheran Church","wheelchairaccess":"Yes"},{"day":"Saturdays","start":21,"start_minutes":15,"end":22,"end_minutes":15,"type":"OD","details":"All meetings are non-smoking.","zipcode":"10025","latlong":{"lat":40.7927122,"lng":-73.97267219999999},"street":"2504 Broadway","new_york_addresses":"2504 Broadway, New York, NY","notes":"Basement","title":"MORNINGSIDE - Morningside","name":"Advent Lutheran Church","wheelchairaccess":"Yes"},{"day":"Wednesdays","start":18,"start_minutes":30,"end":19,"end_minutes":30,"type":"B","details":"","zipcode":"10025","latlong":{"lat":40.805083,"lng":-73.960405},"street":"405 West 114th Street","new_york_addresses":"405 West 114th Street, New York, NY","notes":"Merton Room","title":"MORNINGSIDE HEIGHTS BEGINNERS -","name":"Church of Notre Dame","wheelchairaccess":"Yes"},{"day":"Fridays","start":18,"start_minutes":30,"end":19,"end_minutes":30,"type":"B","details":"","zipcode":"10025","latlong":{"lat":40.805083,"lng":-73.960405},"street":"405 West 114th Street","new_york_addresses":"405 West 114th Street, New York, NY","notes":"Merton Room","title":"MORNINGSIDE HEIGHTS BEGINNERS -","name":"Church of Notre Dame","wheelchairaccess":"Yes"},{"day":"Tuesdays","start":19,"start_minutes":30,"end":20,"end_minutes":30,"type":"C","details":"All meetings are non-smoking.","zipcode":"10024","latlong":{"lat":40.7831667,"lng":-73.98154819999999},"street":"368 West End Ave","new_york_addresses":"368 West End Ave, New York, NY","notes":"1st floor","title":"NEVER TOO LATE - Never Too Late","name":"West End Collegiate Church","wheelchairaccess":"No"},{"day":"Mondays","start":18,"start_minutes":30,"end":19,"end_minutes":30,"type":"S","details":"T 1st Monday Non-Smoking Meeting.","zipcode":"10025","latlong":{"lat":40.79635340000001,"lng":-73.9690816},"street":"225 West 99th Street","new_york_addresses":"225 West 99th Street, New York, NY","notes":"1st Floor","title":"NIGHT LIGHT - Night Light","name":"St. Michael's Parish House","wheelchairaccess":"No"},{"day":"Thursdays","start":18,"start_minutes":0,"end":19,"end_minutes":0,"type":"B","details":"Non-Smoking Meeting.","zipcode":"10025","latlong":{"lat":40.7978378,"lng":-73.9708521},"street":"251 West 100th Street","new_york_addresses":"251 West 100th Street, New York, NY","notes":"","title":"NIGHT LIGHT BEGINNERS - Night Light Beginners","name":"Anshe Chesed Synagogue","wheelchairaccess":"Yes"},{"day":"Sundays","start":22,"start_minutes":0,"end":23,"end_minutes":0,"type":"T","details":"Anniv. Last Thursday, Fri=Promises, Sat=As Bill Sees It","zipcode":"10025","latlong":{"lat":40.7944661,"lng":-73.97063899999999},"street":"207 West 96th Street","new_york_addresses":"207 West 96th Street, New York, NY","notes":"Basement","title":"NINETY-SIXTH STREET WORKSHOP - Ninety-Sixth Street Workshop","name":"Holy Name Church","wheelchairaccess":"No"},{"day":"Mondays","start":22,"start_minutes":0,"end":23,"end_minutes":0,"type":"BB","details":"Anniv. Last Thursday, Fri=Promises, Sat=As Bill Sees It","zipcode":"10025","latlong":{"lat":40.7944661,"lng":-73.97063899999999},"street":"207 West 96th Street","new_york_addresses":"207 West 96th Street, New York, NY","notes":"Basement","title":"NINETY-SIXTH STREET WORKSHOP - Ninety-Sixth Street Workshop","name":"Holy Name Church","wheelchairaccess":"No"},{"day":"Tuesdays","start":22,"start_minutes":0,"end":23,"end_minutes":0,"type":"S","details":"Anniv. Last Thursday, Fri=Promises, Sat=As Bill Sees It","zipcode":"10025","latlong":{"lat":40.7944661,"lng":-73.97063899999999},"street":"207 West 96th Street","new_york_addresses":"207 West 96th Street, New York, NY","notes":"Basement","title":"NINETY-SIXTH STREET WORKSHOP - Ninety-Sixth Street Workshop","name":"Holy Name Church","wheelchairaccess":"No"},{"day":"Wednesdays","start":22,"start_minutes":0,"end":23,"end_minutes":0,"type":"BB","details":"Anniv. Last Thursday, Fri=Promises, Sat=As Bill Sees It","zipcode":"10025","latlong":{"lat":40.7944661,"lng":-73.97063899999999},"street":"207 West 96th Street","new_york_addresses":"207 West 96th Street, New York, NY","notes":"Basement","title":"NINETY-SIXTH STREET WORKSHOP - Ninety-Sixth Street Workshop","name":"Holy Name Church","wheelchairaccess":"No"},{"day":"Thursdays","start":22,"start_minutes":0,"end":23,"end_minutes":0,"type":"B","details":"Anniv. Last Thursday, Fri=Promises, Sat=As Bill Sees It","zipcode":"10025","latlong":{"lat":40.7944661,"lng":-73.97063899999999},"street":"207 West 96th Street","new_york_addresses":"207 West 96th Street, New York, NY","notes":"Basement","title":"NINETY-SIXTH STREET WORKSHOP - Ninety-Sixth Street Workshop","name":"Holy Name Church","wheelchairaccess":"No"},{"day":"Saturdays","start":22,"start_minutes":0,"end":23,"end_minutes":0,"type":"C","details":"Anniv. Last Thursday, Fri=Promises, Sat=As Bill Sees It","zipcode":"10025","latlong":{"lat":40.7944661,"lng":-73.97063899999999},"street":"207 West 96th Street","new_york_addresses":"207 West 96th Street, New York, NY","notes":"Basement","title":"NINETY-SIXTH STREET WORKSHOP - Ninety-Sixth Street Workshop","name":"Holy Name Church","wheelchairaccess":"No"},{"day":"Fridays","start":23,"start_minutes":0,"end":12,"end_minutes":0,"type":"C","details":"Anniv. Last Thursday, Fri=Promises, Sat=As Bill Sees It","zipcode":"10025","latlong":{"lat":40.7944661,"lng":-73.97063899999999},"street":"207 West 96th Street","new_york_addresses":"207 West 96th Street, New York, NY","notes":"Basement","title":"NINETY-SIXTH STREET WORKSHOP - Ninety-Sixth Street Workshop","name":"Holy Name Church","wheelchairaccess":"No"},{"day":"s","start":12,"start_minutes":0,"end":12,"end_minutes":0,"details":"Interpreted for the Deaf and Hard of Hearing No meetings on holidays On Ground Floor Mon. & Wed.; Basement on Thurs.","zipcode":"10024","latlong":{"lat":40.7843147,"lng":-73.97173169999999},"street":"26 West 84th Street","new_york_addresses":"26 West 84th Street, New York, NY","notes":"","title":"OXFORD  (:I) - Oxford","name":"Church of St. Matthew & St. Timothy","wheelchairaccess":"Yes"},{"day":"Mondays","start":19,"start_minutes":30,"end":20,"end_minutes":30,"type":"C","details":"Interpreted for the Deaf and Hard of Hearing No meetings on holidays On Ground Floor Mon. & Wed.; Basement on Thurs.","zipcode":"10024","latlong":{"lat":40.7843147,"lng":-73.97173169999999},"street":"26 West 84th Street","new_york_addresses":"26 West 84th Street, New York, NY","notes":"","title":"OXFORD  (:I) - Oxford","name":"Church of St. Matthew & St. Timothy","wheelchairaccess":"Yes"},{"day":"Wednesdays","start":19,"start_minutes":30,"end":20,"end_minutes":30,"type":"O","details":"Interpreted for the Deaf and Hard of Hearing No meetings on holidays On Ground Floor Mon. & Wed.; Basement on Thurs.","zipcode":"10024","latlong":{"lat":40.7843147,"lng":-73.97173169999999},"street":"26 West 84th Street","new_york_addresses":"26 West 84th Street, New York, NY","notes":"","title":"OXFORD  (:I) - Oxford","name":"Church of St. Matthew & St. Timothy","wheelchairaccess":"Yes"},{"day":"Thursdays","start":19,"start_minutes":30,"end":20,"end_minutes":30,"type":"BB","details":"Interpreted for the Deaf and Hard of Hearing No meetings on holidays On Ground Floor Mon. & Wed.; Basement on Thurs.","zipcode":"10024","latlong":{"lat":40.7843147,"lng":-73.97173169999999},"street":"26 West 84th Street","new_york_addresses":"26 West 84th Street, New York, NY","notes":"","title":"OXFORD  (:I) - Oxford","name":"Church of St. Matthew & St. Timothy","wheelchairaccess":"Yes"},{"day":"Saturdays","start":18,"start_minutes":30,"end":19,"end_minutes":30,"type":"C","details":"","zipcode":"10023","latlong":{"lat":40.7709301,"lng":-73.9806641},"street":"5 West 63rd Street","new_york_addresses":"5 West 63rd Street, New York, NY","notes":"Basement","title":"PROMISES PROMISES - Promises Promises","name":"West Side YMCA","wheelchairaccess":"No"},{"day":"Sundays","start":19,"start_minutes":0,"end":20,"end_minutes":0,"type":"B","details":"Anniv.  Last Sunday","zipcode":"10024","latlong":{"lat":40.7892789,"lng":-73.97716009999999},"street":"552 West End Avenue","new_york_addresses":"552 West End Avenue, New York, NY","notes":"Basement","title":"RENEWAL WEST - Renewal West","name":"St. Ignatius Church","wheelchairaccess":"No"},{"day":"Saturdays","start":18,"start_minutes":0,"end":19,"end_minutes":0,"type":"B","details":"","zipcode":"10024","latlong":{"lat":40.7795102,"lng":-73.98025559999999},"street":"164 West 74 Street","new_york_addresses":"164 West 74 Street, New York, NY","notes":"1st Floor","title":"ROUTES -","name":"Phoenix House","wheelchairaccess":"No"},{"day":"Tuesdays","start":19,"start_minutes":0,"end":20,"end_minutes":0,"type":"B","details":"","zipcode":"10024","latlong":{"lat":40.7795102,"lng":-73.98025559999999},"street":"164 West 74 Street","new_york_addresses":"164 West 74 Street, New York, NY","notes":"1st Floor","title":"ROUTES -","name":"Phoenix House","wheelchairaccess":"No"},{"day":"Wednesdays","start":20,"start_minutes":30,"end":21,"end_minutes":30,"type":"C","details":"Living Sober","zipcode":"10024","latlong":{"lat":40.7886377,"lng":-73.97993699999999},"street":"340 West 85th Street","new_york_addresses":"340 West 85th Street, New York, NY","notes":"Basement","title":"RUDE AWAKENING - Rude Awakening","name":"Volunteers of America","wheelchairaccess":"No"},{"day":"Wednesdays","start":19,"start_minutes":0,"end":20,"end_minutes":0,"type":"B","details":"All Meetings Are Non-Smoking.","zipcode":"10024","latlong":{"lat":40.7831667,"lng":-73.98154819999999},"street":"368 West End Avenue","new_york_addresses":"368 West End Avenue, New York, NY","notes":"1st Floor","title":"SMITHEREENS - Smithereens","name":"West End Collegiate Church","wheelchairaccess":"No"},{"day":"Wednesdays","start":20,"start_minutes":15,"end":21,"end_minutes":15,"type":"S","details":"All Meetings Are Non-Smoking.","zipcode":"10024","latlong":{"lat":40.7831667,"lng":-73.98154819999999},"street":"368 West End Avenue","new_york_addresses":"368 West End Avenue, New York, NY","notes":"1st Floor","title":"SMITHEREENS - Smithereens","name":"West End Collegiate Church","wheelchairaccess":"No"},{"day":"Saturdays","start":18,"start_minutes":30,"end":19,"end_minutes":30,"type":"S","details":"Alternates Betw.the Steps & Promises.","zipcode":"10023","latlong":{"lat":40.77711,"lng":-73.981217},"street":"152 West 71st Street","new_york_addresses":"152 West 71st Street, New York, NY","notes":"","title":"SOBER STEPPING - Sober Stepping","name":"Blessed Sacrament Church Rectory","wheelchairaccess":"No"},{"day":"Sundays","start":10,"start_minutes":30,"end":11,"end_minutes":30,"type":"C","details":"Men's Meeting","zipcode":"10023","latlong":{"lat":40.7709301,"lng":-73.9806641},"street":"5 West 63rd Street","new_york_addresses":"5 West 63rd Street, New York, NY","notes":"","title":"SUNDAY MEN'S TOPIC - Sunday Men's Topic","name":"West Side YMCA","wheelchairaccess":"No"},{"day":"Sundays","start":24,"start_minutes":0,"end":13,"end_minutes":0,"type":"C","details":"Round Robin Topic Meeting.","zipcode":"10023","latlong":{"lat":40.7781299,"lng":-73.97975799999999},"street":"131 West 72nd Street","new_york_addresses":"131 West 72nd Street, New York, NY","notes":"3rd Floor","title":"SUNDAY WEST - Sunday West","name":"","wheelchairaccess":"No"},{"day":"Thursdays","start":15,"start_minutes":30,"end":16,"end_minutes":30,"type":"B","details":"T Last Friday","zipcode":"10025","latlong":{"lat":40.7944661,"lng":-73.97063899999999},"street":"207 West 96th Street","new_york_addresses":"207 West 96th Street, New York, NY","notes":"Basement","title":"TURN IT OVER - Turn It Over","name":"Holy Name Church","wheelchairaccess":"No"},{"day":"Tuesdays","start":15,"start_minutes":30,"end":16,"end_minutes":30,"type":"B","details":"T Last Friday","zipcode":"10025","latlong":{"lat":40.7944661,"lng":-73.97063899999999},"street":"207 West 96th Street","new_york_addresses":"207 West 96th Street, New York, NY","notes":"Basement","title":"TURN IT OVER - Turn It Over","name":"Holy Name Church","wheelchairaccess":"No"},{"day":"Tuesdays","start":16,"start_minutes":30,"end":17,"end_minutes":30,"type":"C","details":"T Last Friday","zipcode":"10025","latlong":{"lat":40.7944661,"lng":-73.97063899999999},"street":"207 West 96th Street","new_york_addresses":"207 West 96th Street, New York, NY","notes":"Basement","title":"TURN IT OVER - Turn It Over","name":"Holy Name Church","wheelchairaccess":"No"},{"day":"Thursdays","start":16,"start_minutes":30,"end":17,"end_minutes":30,"type":"C","details":"T Last Friday","zipcode":"10025","latlong":{"lat":40.7944661,"lng":-73.97063899999999},"street":"207 West 96th Street","new_york_addresses":"207 West 96th Street, New York, NY","notes":"Basement","title":"TURN IT OVER - Turn It Over","name":"Holy Name Church","wheelchairaccess":"No"},{"day":"Fridays","start":16,"start_minutes":30,"end":17,"end_minutes":30,"type":"S","details":"T Last Friday","zipcode":"10025","latlong":{"lat":40.7944661,"lng":-73.97063899999999},"street":"207 West 96th Street","new_york_addresses":"207 West 96th Street, New York, NY","notes":"Basement","title":"TURN IT OVER - Turn It Over","name":"Holy Name Church","wheelchairaccess":"No"},{"day":"Saturdays","start":10,"start_minutes":0,"end":11,"end_minutes":0,"type":"C","details":"10am=As Bill Sees It, 11:15am=Topic Meeting","zipcode":"10023","latlong":{"lat":40.77711,"lng":-73.981217},"street":"152 West 71st Street","new_york_addresses":"152 West 71st Street, New York, NY","notes":"Ring Bell","title":"WAY OF LIFE - Way Of Life","name":"Blessed Sacrament Church Rectory","wheelchairaccess":"No"},{"day":"Saturdays","start":11,"start_minutes":15,"end":24,"end_minutes":15,"type":"C","details":"10am=As Bill Sees It, 11:15am=Topic Meeting","zipcode":"10023","latlong":{"lat":40.77711,"lng":-73.981217},"street":"152 West 71st Street","new_york_addresses":"152 West 71st Street, New York, NY","notes":"Ring Bell","title":"WAY OF LIFE - Way Of Life","name":"Blessed Sacrament Church Rectory","wheelchairaccess":"No"},{"day":"Thursdays","start":18,"start_minutes":15,"end":19,"end_minutes":15,"type":"C","details":"S Last Thursday,  No Prayers.","zipcode":"10023","latlong":{"lat":40.7739911,"lng":-73.97916920000002},"street":"30 West 68th Street","new_york_addresses":"30 West 68th Street, New York, NY","notes":"Check security desk for Room #","title":"WE AGNOSTICS OF NYC - We Agnostics Of NYC","name":"Stephen Wise Free Synagogue","wheelchairaccess":"Yes"},{"day":"Wednesdays","start":16,"start_minutes":45,"end":17,"end_minutes":45,"type":"OD","details":"Issues of medication in recovery are discussed.  All are welcome.","zipcode":"10025","latlong":{"lat":40.7944661,"lng":-73.97063899999999},"street":"207 West 96th Street","new_york_addresses":"207 West 96th Street, New York, NY","notes":"Basement","title":"WE ARE NOT DOCTORS (WESTSIDE) -","name":"Holy Name Church","wheelchairaccess":"No"},{"day":"Thursdays","start":19,"start_minutes":0,"end":20,"end_minutes":0,"type":"B","details":"","zipcode":"10024","latlong":{"lat":40.7888908,"lng":-73.9772512},"street":"263 West 86th Street","new_york_addresses":"263 West 86th Street, New York, NY","notes":"1st Floor","title":"WEST END - West End","name":"Church of St. Paul & St. Andrew","wheelchairaccess":"Yes"},{"day":"Thursdays","start":19,"start_minutes":0,"end":20,"end_minutes":0,"type":"S","details":"","zipcode":"10024","latlong":{"lat":40.7888908,"lng":-73.9772512},"street":"263 West 86th Street","new_york_addresses":"263 West 86th Street, New York, NY","notes":"1st Floor","title":"WEST END - West End","name":"Church of St. Paul & St. Andrew","wheelchairaccess":"Yes"},{"day":"Tuesdays","start":19,"start_minutes":0,"end":20,"end_minutes":0,"type":"B","details":"","zipcode":"10024","latlong":{"lat":40.7888908,"lng":-73.9772512},"street":"263 West 86th Street","new_york_addresses":"263 West 86th Street, New York, NY","notes":"1st Floor","title":"WEST END - West End","name":"Church of St. Paul & St. Andrew","wheelchairaccess":"Yes"},{"day":"Tuesdays","start":19,"start_minutes":0,"end":20,"end_minutes":0,"type":"BB","details":"","zipcode":"10024","latlong":{"lat":40.7888908,"lng":-73.9772512},"street":"263 West 86th Street","new_york_addresses":"263 West 86th Street, New York, NY","notes":"1st Floor","title":"WEST END - West End","name":"Church of St. Paul & St. Andrew","wheelchairaccess":"Yes"},{"day":"Wednesdays","start":19,"start_minutes":0,"end":20,"end_minutes":0,"type":"C","details":"","zipcode":"10025","latlong":{"lat":40.7991395,"lng":-73.9711355},"street":"306 West 102nd Street","new_york_addresses":"306 West 102nd Street, New York, NY","notes":"2nd Floor","title":"WESTSIDE 11th STEP MEDITATION WORKSHOP - Westside 11th Step Meditation Workshop","name":"Addiction Institute","wheelchairaccess":"No"},{"day":"Fridays","start":19,"start_minutes":0,"end":20,"end_minutes":0,"type":"S","details":"","zipcode":"10023","latlong":{"lat":40.77711,"lng":-73.981217},"street":"152 West 71st Street","new_york_addresses":"152 West 71st Street, New York, NY","notes":"","title":"WESTSIDE STEP - Westside Step","name":"Blessed Sacrament Church Rectory","wheelchairaccess":"No"},{"day":"Saturdays","start":19,"start_minutes":0,"end":20,"end_minutes":0,"type":"B","details":"Anniv. Meeting Last Saturday.","zipcode":"10024","latlong":{"lat":40.7843147,"lng":-73.97173169999999},"street":"26 West 84th Street","new_york_addresses":"26 West 84th Street, New York, NY","notes":"Stanford Room (blue door)","title":"WESTSIDE YOUNG PEOPLE - Westside Young People","name":"Church of St.Matthew & St. Timothy","wheelchairaccess":"No"},{"day":"Saturdays","start":17,"start_minutes":0,"end":18,"end_minutes":0,"type":"OD","details":"","zipcode":"10024","latlong":{"lat":40.7880097,"lng":-73.9707093},"street":"595 Columbus Avenue","new_york_addresses":"595 Columbus Avenue, New York, NY","notes":"Ground Level, Art Room","title":"WITHOUT A PRAYER -","name":"Goddard Riverside Community Center","wheelchairaccess":"Yes"},{"day":"Wednesdays","start":9,"start_minutes":0,"end":10,"end_minutes":0,"type":"C","details":"S 2nd Wednesday","zipcode":"10025","latlong":{"lat":40.7991395,"lng":-73.9711355},"street":"306 West 102nd Street","new_york_addresses":"306 West 102nd Street, New York, NY","notes":"2nd Floor","title":"WOMEN LIVING SOBER - Women Living Sober","name":"Trinity Halfway House","wheelchairaccess":"No"},{"day":"Saturdays","start":9,"start_minutes":0,"end":10,"end_minutes":0,"type":"C","details":"S 2nd Wednesday","zipcode":"10025","latlong":{"lat":40.7991395,"lng":-73.9711355},"street":"306 West 102nd Street","new_york_addresses":"306 West 102nd Street, New York, NY","notes":"2nd Floor","title":"WOMEN LIVING SOBER - Women Living Sober","name":"Trinity Halfway House","wheelchairaccess":"No"},{"day":"Fridays","start":19,"start_minutes":0,"end":20,"end_minutes":0,"type":"C","details":"Women's Meeting","zipcode":"10024","latlong":{"lat":40.7856431,"lng":-73.97763690000001},"street":"213 West 82nd Street","new_york_addresses":"213 West 82nd Street, New York, NY","notes":"","title":"WOMEN WEST AA - Women West AA","name":"Holy Trinity Church","wheelchairaccess":"Yes"},{"day":"Thursdays","start":24,"start_minutes":0,"end":13,"end_minutes":0,"type":"C","details":"Wed= Alternate BB and Living Sober.","zipcode":"10023","latlong":{"lat":40.77711,"lng":-73.981217},"street":"152 West 71st Street","new_york_addresses":"152 West 71st Street, New York, NY","notes":"","title":"WOMEN'S BEGINNING LITERATURE -","name":"Blessed Sacrament (Rectory)","wheelchairaccess":"No"},{"day":"Mondays","start":24,"start_minutes":0,"end":13,"end_minutes":15,"type":"C","details":"Wed= Alternate BB and Living Sober.","zipcode":"10023","latlong":{"lat":40.77711,"lng":-73.981217},"street":"152 West 71st Street","new_york_addresses":"152 West 71st Street, New York, NY","notes":"","title":"WOMEN'S BEGINNING LITERATURE -","name":"Blessed Sacrament (Rectory)","wheelchairaccess":"No"},{"day":"Wednesdays","start":24,"start_minutes":30,"end":13,"end_minutes":30,"type":"B","details":"Wed= Alternate BB and Living Sober.","zipcode":"10023","latlong":{"lat":40.77711,"lng":-73.981217},"street":"152 West 71st Street","new_york_addresses":"152 West 71st Street, New York, NY","notes":"","title":"WOMEN'S BEGINNING LITERATURE -","name":"Blessed Sacrament (Rectory)","wheelchairaccess":"No"},{"day":"Mondays","start":24,"start_minutes":0,"end":13,"end_minutes":0,"type":"OD","details":"","latlong":{"lat":40.77711,"lng":-73.981217},"street":"152 west 71st street","new_york_addresses":"152 west 71st street, New York, NY","notes":"","title":"WOMEN'S ELEVENTH STEP MEETING -","name":"","wheelchairaccess":"Yes"},{"day":"Mondays","start":24,"start_minutes":0,"end":13,"end_minutes":15,"type":"C","details":"Women's Meeting","zipcode":"10023","latlong":{"lat":40.77711,"lng":-73.981217},"street":"152 West 71st Street","new_york_addresses":"152 West 71st Street, New York, NY","notes":"","title":"WOMEN'S TELL IT LIKE IT IS - Women's Tell It Like It Is","name":"Blessed Sacrament (Rectory)","wheelchairaccess":"Yes"},{"day":"Tuesdays","start":18,"start_minutes":30,"end":19,"end_minutes":30,"type":"C","details":"Women's Meeting","zipcode":"10023","latlong":{"lat":40.7787393,"lng":-73.97455099999999},"street":"160 Central Park West","new_york_addresses":"160 Central Park West, New York, NY","notes":"Downstairs","title":"WOMEN'S WESTSIDE TOPIC - Women's Westside Topic","name":"Universalist Church","wheelchairaccess":"No"},{"day":"Wednesdays","start":18,"start_minutes":0,"end":19,"end_minutes":0,"type":"C","details":"","zipcode":"10025","latlong":{"lat":40.7944661,"lng":-73.97063899999999},"street":"207 West 96th Street","new_york_addresses":"207 West 96th Street, New York, NY","notes":"Basement","title":"WRITING SOBER - Writing Sober","name":"Holy Name Church","wheelchairaccess":"No"}]